[
  {
    "id": "store_001",
    "chain_id": "chain_001",
    "name": "Dmart Virar West 1",
    "logo": "assets/images/dmart.png",
    "address": "Shop No. 5, Western Plaza, Virar West, Mumbai",
    "area": "Virar West",
    "city": "Mumbai",
    "pincode": "401303",
    "latitude": 19.4650,
    "longitude": 72.1950
  },
  {
    "id": "store_002",
    "chain_id": "chain_001",
    "name": "Dmart Virar West 2",
    "logo": "assets/images/dmart.png",
    "address": "Shanti Tower Road, Virar West, Mumbai",
    "area": "Virar West",
    "city": "Mumbai",
    "pincode": "401303",
    "latitude": 19.4550,
    "longitude": 72.2000
  },
  {
    "id": "store_003",
    "chain_id": "chain_002",
    "name": "Reliance Smart Virar",
    "logo": "assets/images/reliance.png",
    "address": "Orbit Mall, Opposite Railway Station, Virar West, Mumbai",
    "area": "Virar West",
    "city": "Mumbai",
    "pincode": "401303",
    "latitude": 	19.4700,
    "longitude": 	72.1800
  },
  {
    "id": "store_004",
    "chain_id": "chain_003",
    "name": "Big Bazaar Virar",
    "logo": "assets/images/big-bazaar.png",
    "address": "Global City Road, Virar West, Mumbai",
    "area": "Virar West",
    "city": "Mumbai",
    "pincode": "401303",
    "latitude": 	19.4800,
    "longitude": 	72.1900
  },
  {
    "id": "store_005",
    "chain_id": "chain_003",
    "name": "Big Mini Market",
    "logo": "assets/images/big-bazaar.png",
    "address": "Skyline Residency Lane, Virar West, Mumbai",
    "area": "Virar West",
    "city": "Mumbai",
    "pincode": "401303",
    "latitude": 19.4300,
    "longitude": 72.1750
  },
  {
    "id": "store_006",
    "chain_id": "chain_004",
    "name": "Jiffy Supermarket Virar",
    "logo": "assets/images/jiffy.png",
    "address": "Sai Baba Nagar, Virar East, Mumbai",
    "area": "Virar West",
    "city": "Mumbai",
    "pincode": "401303",
    "latitude":	19.4450,
    "longitude": 72.2100
  },
  {
    "id": "store_007",
    "chain_id": "chain_004",
    "name": "Jiffy Supermarket Virar",
    "logo": "assets/images/jiffy.png",
    "address": "Shivneri Road, Virar West, Mumbai",
    "area": "Virar East",
    "city": "Mumbai",
    "pincode": "401303",
    "latitude": 19.4900,
    "longitude":	72.2050
  },
  {
    "id": "store_008",
    "chain_id": "chain_004",
    "name": "Coles Supermarket Virar",
    "logo": "assets/images/coles.png",
    "address": "Shivneri Road, Virar West, Mumbai",
    "area": "Virar West",
    "city": "Mumbai",
    "pincode": "401303",
    "latitude": 19.5100,
    "longitude": 	72.1950
  },
  {
    "id": "store_009",
    "chain_id": "chain_005",
    "name": "Spencer's Virar",
    "logo": "assets/images/spencers.png",
    "address": "Sai Baba Nagar, Virar West, Mumbai",
    "area": "Virar West",
    "city": "Mumbai",
    "pincode": "401303",
    "latitude": 19.5000,
    "longitude": 	72.2250
  },
  {
    "id": "store_010",
    "chain_id": "chain_005",
    "name": "Spencer's Virar",
    "logo": "assets/images/spencers.png",
    "address": "Shivneri Road, Virar West, Mumbai",
    "area": "Virar West",
    "city": "Mumbai",
    "pincode": "401303",
    "latitude": 19.5200,
    "longitude": 	72.1750
  }
]
